City_ID,City,Lat,Lng,Max Temp,Humidity,Cloudiness,Wind Speed,Country,Date
0,najran,17.4924,44.1277,26.61,18,98,2.19,SA,1693275044
1,bilibino,68.0546,166.4372,11.63,49,97,5.04,RU,1693275045
2,albany,42.6001,-73.9662,19.8,94,100,0.91,US,1693274978
3,ilulissat,69.2167,-51.1,6.01,93,75,3.09,GL,1693275047
4,susuman,62.7833,148.1667,16.7,50,14,1.12,RU,1693275049
5,chimbarongo,-34.7,-71.05,8.73,78,5,1.24,CL,1693274959
6,adamstown,-25.066,-130.1015,22.09,86,100,13.67,PN,1693275054
7,puerto natales,-51.7236,-72.4875,0.69,93,100,1.6,CL,1693275055
8,formosa,-26.1775,-58.1781,13.93,59,0,2.88,AR,1693275058
9,waitangi,-43.9535,-176.5597,10.46,82,43,6.26,NZ,1693275059
10,port-aux-francais,-49.35,70.2167,4.03,83,100,16.01,TF,1693275060
11,sinop,41.7711,34.8709,18.13,67,89,1.84,TR,1693275061
12,puerto ayora,-0.7393,-90.3518,24.75,89,30,2.24,EC,1693275062
13,kyzyl-suu,42.3414,78.0056,11.43,54,35,1.42,KG,1693275064
14,north bend,43.4065,-124.2243,18.98,72,0,4.63,US,1693275065
15,myanaung,18.2833,95.3167,27.45,84,98,2.15,MM,1693275066
16,bandrele,-12.9067,45.1914,25.86,78,75,9.26,YT,1693275067
17,ravar,31.2656,56.8055,26.37,27,0,1.88,IR,1693275069
18,vershino-darasunskiy,52.35,115.5167,15.71,52,99,0.95,RU,1693275071
19,grytviken,-54.2811,-36.5092,-0.88,95,100,2.61,GS,1693275072
20,kodiak,57.79,-152.4072,12.73,100,100,5.14,US,1693275073
21,aasiaat,68.7098,-52.8699,3.53,97,100,3.46,GL,1693275074
22,sitka,57.0531,-135.33,19.94,68,0,1.54,US,1693274788
23,port moresby,-9.4431,147.1797,26.91,69,99,7.61,PG,1693275077
24,uturoa,-16.7333,-151.4333,25.45,83,49,7.93,PF,1693275078
25,ribeira grande,38.5167,-28.7,23.76,94,100,4.47,PT,1693275079
26,luderitz,-26.6481,15.1594,23.25,36,0,3.04,NA,1693275081
27,antsiranana,-12.2787,49.2917,22.13,71,23,6.18,MG,1693275082
28,brookings,44.3114,-96.7984,21.88,81,0,2.57,US,1693275071
29,garh maharaja,30.8339,71.9053,29.17,49,0,3.49,PK,1693275084
30,castillos,-34.1667,-53.8333,8.23,92,100,1.37,UY,1693275086
31,kamyshlov,56.8428,62.7111,8.83,86,73,4.24,RU,1693275087
32,imbituba,-28.24,-48.6703,10.24,86,0,2.02,BR,1693275088
33,margate,51.3813,1.3862,14.27,79,98,0.89,GB,1693275090
34,hamilton,39.1834,-84.5333,21.47,71,0,4.12,US,1693274946
35,edinburgh of the seven seas,-37.0676,-12.3116,11.61,63,17,8.35,SH,1693275092
36,jamestown,42.097,-79.2353,18.9,89,75,3.09,US,1693275093
37,tiksi,71.6872,128.8694,8.03,85,98,2.23,RU,1693275095
38,atafu village,-8.5421,-172.5159,28.55,76,79,7.44,TK,1693275096
39,ondo,7.1,4.8333,22.22,97,96,0.84,NG,1693275097
40,talnakh,69.4865,88.3972,12.67,68,99,0.64,RU,1693275100
41,port lincoln,-34.7333,135.8667,21.02,37,100,10.42,AU,1693275102
42,cabo san lucas,22.8909,-109.9124,32.56,70,0,3.6,MX,1693274813
43,olonkinbyen,70.9221,-8.7187,4.71,85,100,4.98,SJ,1693275104
44,invercargill,-46.4,168.35,11.12,85,82,4.47,NZ,1693275064
45,igarka,67.4667,86.5833,12.28,78,100,4.98,RU,1693274861
46,tondano,1.3038,124.9112,28.05,59,97,4.07,ID,1693275108
47,college,64.8569,-147.8028,12.97,76,75,2.57,US,1693275109
48,gazojak,41.1875,61.4036,20.7,24,0,4.27,TM,1693275111
49,newman,37.3138,-121.0208,33.49,44,0,0.89,US,1693275113
50,saint-leu,-21.15,55.2833,20.48,91,61,0.91,RE,1693275115
51,bredasdorp,-34.5322,20.0403,13.44,53,0,2.69,ZA,1693275116
52,hadibu,12.65,54.0333,26.27,80,35,7.29,YE,1693275117
53,kill devil hills,36.0307,-75.676,27.21,97,0,0.0,US,1693275119
54,scappoose,45.7543,-122.8776,20.3,75,100,2.06,US,1693275079
55,ushuaia,-54.8,-68.3,0.7,92,95,1.55,AR,1693275121
56,san antonio de pale,-1.4014,5.6325,23.99,87,84,4.94,GQ,1693275124
57,ust-nera,64.5667,143.2,19.14,55,99,1.31,RU,1693275125
58,linton,39.0348,-87.1658,20.54,56,60,3.69,US,1693275126
59,broken hill,-31.95,141.4333,23.35,25,4,4.18,AU,1693275127
60,tofol,5.3248,163.0078,31.88,66,75,1.54,FM,1693275129
61,udachny,66.4167,112.4,19.23,63,24,1.76,RU,1693275130
62,queenstown,-31.8976,26.8753,9.98,31,0,2.17,ZA,1693274886
63,hithadhoo,-0.6,73.0833,27.85,75,39,3.16,MV,1693275132
64,yuzhno-kurilsk,44.0306,145.8556,17.11,82,96,7.17,RU,1693275134
65,belel,7.05,14.4333,16.13,94,100,0.96,CM,1693275135
66,lijiang,26.8688,100.2207,13.36,98,100,1.15,CN,1693275137
67,igrim,63.1906,64.4162,8.97,69,53,4.19,RU,1693275138
68,kununurra,-15.7667,128.7333,31.99,22,7,4.63,AU,1693274888
69,kargasok,59.0556,80.8572,15.71,93,100,4.45,RU,1693275140
70,oyon,-10.6681,-76.7731,9.49,77,9,1.32,PE,1693275142
71,badger,64.8,-147.5333,12.93,79,75,2.57,US,1693275144
72,bethel,41.3712,-73.414,21.12,85,0,0.0,US,1693274944
73,murashi,59.3999,48.9615,3.76,96,1,2.61,RU,1693275147
74,blackmans bay,-43.0167,147.3167,17.07,77,86,2.16,AU,1693275150
75,amahai,-3.3333,128.9167,25.65,84,92,5.97,ID,1693274895
76,happy valley-goose bay,53.3168,-60.3315,17.17,67,0,1.54,CA,1693275153
77,sarmiento,-45.5882,-69.07,6.4,56,12,4.82,AR,1693275154
78,san patricio,28.017,-97.5169,31.15,52,21,0.46,US,1693275156
79,georgetown,5.4112,100.3354,28.96,84,40,3.09,MY,1693274934
80,charlottetown,46.2352,-63.1267,17.29,87,40,3.09,CA,1693275158
81,puerto madryn,-42.7692,-65.0385,10.51,43,0,5.4,AR,1693275160
82,kismayo,-0.3582,42.5454,24.61,82,68,8.07,SO,1693275022
83,yellowknife,62.456,-114.3525,22.45,66,27,1.49,CA,1693275056
84,bikenibeu village,1.3673,173.1241,30.98,70,100,2.06,KI,1693275164
85,burang,30.25,81.1667,6.75,49,3,1.54,CN,1693275166
86,flying fish cove,-10.4217,105.6791,25.82,78,40,6.69,CX,1693274893
87,anadyr,64.75,177.4833,10.28,81,75,7.0,RU,1693275169
88,bambanglipuro,-7.95,110.2833,26.58,65,16,4.3,ID,1693275170
89,dunedin,-45.8742,170.5036,15.04,55,53,4.52,NZ,1693275121
90,west island,-12.1568,96.8225,25.99,73,99,5.66,CC,1693275172
91,gadzhiyevo,69.2551,33.3362,9.59,82,100,2.25,RU,1693275173
92,khandyga,62.6667,135.6,22.84,56,12,1.44,RU,1693275175
93,tadine,-21.55,167.8833,21.49,73,97,7.28,NC,1693275176
94,cova figueira,14.8905,-24.2934,24.68,83,36,3.95,CV,1693275177
95,koudougou,12.25,-2.3667,24.86,76,94,3.34,BF,1693275178
96,sisimiut,66.9395,-53.6735,5.44,97,100,4.77,GL,1693275179
97,darwin,-12.4611,130.8418,31.05,37,0,7.2,AU,1693275181
98,avarua,-21.2078,-159.775,23.03,56,75,3.6,CK,1693275182
99,papao,-17.75,-149.55,25.82,94,98,8.91,PF,1693275183
100,xinyu,27.8043,114.9334,21.93,92,100,1.2,CN,1693275184
101,tazovsky,67.4667,78.7,10.13,70,15,2.94,RU,1693275186
102,kijang,35.2442,129.2139,27.21,86,92,6.5,KR,1693275043
103,wanning,18.8003,110.3967,28.54,85,99,1.5,CN,1693275189
104,pisco,-13.7,-76.2167,19.03,82,0,5.66,PE,1693275191
105,guatire,10.4762,-66.5427,25.09,83,3,1.31,VE,1693275193
106,kiama,-34.6833,150.8667,24.03,60,4,5.81,AU,1693275194
107,pamandzi,-12.7967,45.2794,25.88,78,75,8.75,YT,1693275196
108,dashitou,43.3067,128.5114,15.43,97,100,5.06,CN,1693275197
109,thinadhoo,0.5333,72.9333,27.89,73,58,2.74,MV,1693275198
110,xinzhou,38.4092,112.7333,21.87,58,0,0.34,CN,1693275200
111,papatowai,-46.5619,169.4708,11.46,74,86,4.63,NZ,1693275201
112,margaret river,-33.95,115.0667,14.61,59,83,4.25,AU,1693275204
113,alofi,-19.0595,-169.9187,24.94,53,20,6.69,NU,1693275205
114,longyearbyen,78.2186,15.6401,7.91,76,75,4.12,SJ,1693275206
115,smithers,54.7804,-127.1743,27.14,37,0,0.49,CA,1693275016
116,colonia,50.9333,6.95,15.48,86,0,0.51,DE,1693274942
117,stanley,54.868,-1.6985,12.09,86,75,2.06,GB,1693275210
118,selfoss,63.9331,-20.9971,9.47,87,0,3.38,IS,1693275214
119,klyuchi,52.2667,79.1667,16.49,61,8,4.51,RU,1693275216
120,puerto baquerizo moreno,-0.9,-89.6,23.69,81,81,5.52,EC,1693275217
121,palma sola,-23.9634,-64.2987,11.0,35,46,1.7,AR,1693275218
122,labrador city,52.9463,-66.9114,13.63,63,100,2.77,CA,1693275010
123,ulanhot,46.0833,122.0833,18.66,71,100,8.36,CN,1693275220
124,kapa'a,22.0752,-159.319,30.18,68,40,5.66,US,1693275221
125,vilyuchinsk,52.9306,158.4028,18.15,73,58,3.22,RU,1693275223
126,nadi,-17.8,177.4167,26.0,65,75,4.63,FJ,1693275224
127,bandon,51.7469,-8.7425,12.77,98,74,1.99,IE,1693275225
128,emerald,-23.5333,148.1667,24.63,43,4,2.35,AU,1693275226
129,levokumskoye,44.8219,44.6606,22.3,57,96,4.57,RU,1693275228
130,vila franca do campo,37.7167,-25.4333,22.23,87,31,3.37,PT,1693275229
131,chanika,-5.4167,38.0167,16.36,96,16,1.04,TZ,1693275230
132,mount isa,-20.7333,139.5,26.87,22,0,3.6,AU,1693275231
133,floro,61.5996,5.0328,12.2,94,100,3.09,NO,1693275232
134,derzhavinsk,51.1,66.3167,12.82,83,100,10.86,KZ,1693275234
135,hawaiian paradise park,19.5933,-154.9731,25.73,85,100,1.54,US,1693275235
136,dudinka,69.4058,86.1778,11.27,78,100,1.37,RU,1693275236
137,puerto carreno,6.189,-67.4859,25.55,90,100,1.88,CO,1693275237
138,assab,13.0092,42.7394,33.29,61,100,1.3,ER,1693275239
139,vila velha,-20.3297,-40.2925,19.97,99,75,1.54,BR,1693275221
140,kasaragod,12.5,75.0,25.42,88,100,1.89,IN,1693275242
141,indramayu,-6.3264,108.32,28.08,59,13,5.61,ID,1693275243
142,zhosaly,45.4878,64.0781,19.82,25,100,9.76,KZ,1693275245
143,afaahiti,-17.75,-149.2833,24.93,92,100,8.45,PF,1693275246
144,kalabo,-14.97,22.6814,15.51,67,0,2.95,ZM,1693275247
145,qaqortoq,60.7167,-46.0333,8.6,58,100,0.54,GL,1693275248
146,poronaysk,49.2167,143.1167,19.74,59,7,0.66,RU,1693275250
147,brisas de zicatela,15.8369,-97.0419,28.29,61,100,0.0,MX,1693275251
148,saipan,15.1355,145.701,25.39,94,100,2.57,MP,1693275252
149,fort st. john,56.2499,-120.8529,24.94,47,0,2.57,CA,1693275253
150,morehead city,34.7229,-76.726,29.0,87,0,1.34,US,1693275067
151,vadso,70.0744,29.7487,9.49,100,75,5.14,NO,1693275256
152,jiangzi,28.95,89.6333,9.35,53,6,1.1,CN,1693275257
153,whitehorse,60.7161,-135.0538,27.43,38,75,4.63,CA,1693275258
154,hays,30.0502,-98.0336,31.92,46,0,1.34,US,1693275260
155,bulayevo,54.9056,70.4439,10.91,87,99,4.56,KZ,1693275261
156,punta arenas,-53.15,-70.9167,5.09,76,100,5.01,CL,1693275129
157,tabou,4.423,-7.3528,24.18,89,100,3.28,CI,1693275265
158,andovoranto,-18.95,49.1,18.67,92,42,3.19,MG,1693275266
159,petropavlovsk-kamchatsky,53.0452,158.6483,19.33,52,75,5.0,RU,1693275009
160,haiku-pauwela,20.9219,-156.3051,28.01,60,40,8.75,US,1693275268
161,tocopilla,-22.092,-70.1979,19.72,65,10,3.42,CL,1693275088
162,graaff-reinet,-32.2522,24.5308,14.92,24,0,4.07,ZA,1693275271
163,port douglas,-16.4833,145.4667,23.77,61,100,5.32,AU,1693275272
164,as sulayyil,20.4607,45.5779,32.14,17,100,3.36,SA,1693275275
165,kerikeri,-35.2268,173.9474,13.67,55,8,2.49,NZ,1693275077
166,yurimaguas,-5.9,-76.0833,23.33,90,99,0.34,PE,1693275279
167,mayahi,13.9553,7.6712,28.59,51,2,3.81,NE,1693275281
168,taghazout,30.5426,-9.7112,20.43,78,0,2.56,MA,1693275282
169,puerto deseado,-47.7503,-65.8938,7.26,57,0,4.4,AR,1693275088
170,sur,22.5667,59.5289,28.82,64,30,3.29,OM,1693275285
171,daru,-9.0763,143.2092,25.26,81,90,6.96,PG,1693275018
172,peace river,56.2501,-117.286,21.17,77,0,3.09,CA,1693275287
173,iqaluit,63.7506,-68.5145,5.85,70,75,3.6,CA,1693275289
174,constantia,44.1833,28.65,23.38,56,0,1.81,RO,1693275290
175,freetown,8.484,-13.2299,24.51,91,100,3.71,SL,1693275291
176,mwinilunga,-11.7358,24.4293,14.76,68,54,3.52,ZM,1693275292
177,ain sefra,32.75,-0.5833,23.83,20,34,1.74,DZ,1693275293
178,seydi,39.4816,62.9137,18.95,23,0,3.67,TM,1693275294
179,kapuskasing,49.4169,-82.4331,15.05,94,100,3.09,CA,1693275296
180,holualoa,19.6228,-155.9522,27.91,97,40,6.69,US,1693275297
181,fort bragg,35.139,-79.006,27.17,90,75,3.09,US,1693275298
182,belogorsk,50.9158,128.4611,20.58,66,83,1.84,RU,1693275299
183,port mathurin,-19.6833,63.4167,22.56,74,25,9.26,MU,1693275300
184,moab,38.5733,-109.5498,31.03,18,0,0.78,US,1693275302
185,lerwick,60.1545,-1.1494,13.0,93,100,5.4,GB,1693275303
186,pacific grove,36.6177,-121.9166,22.67,77,0,6.17,US,1693275304
187,martapura,-3.4167,114.85,31.05,51,0,2.06,ID,1693275306
188,utrik,11.2278,169.8474,28.41,77,67,6.25,MH,1693275307
189,coahuayana de hidalgo,18.7,-103.6583,26.43,92,97,1.52,MX,1693275308
190,wicklow,53.0,-6.4167,11.36,98,49,1.31,IE,1693275310
191,ozernyy,55.5802,32.4127,14.08,99,98,2.27,RU,1693275311
192,palikir - national government center,6.9248,158.1611,30.47,70,100,3.6,FM,1693275312
193,ola,59.5833,151.2833,20.08,55,38,0.33,RU,1693275313
194,mangai,-4.05,19.5333,21.92,86,99,1.01,CD,1693275315
195,palmer,42.1584,-72.3287,20.67,77,75,3.6,US,1693275076
196,savalou,7.9281,1.9756,22.25,98,100,1.53,BJ,1693275318
197,manavalakurichi,8.1333,77.3,26.57,81,100,3.38,IN,1693275320
198,luanda,-8.8368,13.2343,21.0,88,20,2.06,AO,1693275321
199,verdal,63.7933,11.4817,12.02,94,100,2.4,NO,1693275322
200,tabora,-5.0167,32.8,18.39,61,10,3.49,TZ,1693275323
201,hermanus,-34.4187,19.2345,16.84,45,0,5.16,ZA,1693275325
202,port elizabeth,-33.918,25.5701,11.16,100,1,1.54,ZA,1693275326
203,wailua homesteads,22.0669,-159.378,29.44,70,40,5.66,US,1693275327
204,lebu,-37.6167,-73.65,8.48,77,43,2.66,CL,1693275328
205,port alfred,-33.5906,26.891,16.32,64,13,5.03,ZA,1693275330
206,chonchi,-42.6128,-73.8092,5.56,93,87,1.45,CL,1693275331
207,taulaga,-11.0553,-171.0883,28.4,75,100,7.51,AS,1693275136
208,oudtshoorn,-33.5907,22.2014,19.2,19,0,3.0,ZA,1693275335
209,malango,-2.9627,119.9001,26.22,59,17,1.86,ID,1693275336
210,monze,-16.2833,27.4833,13.17,72,1,3.6,ZM,1693275338
211,callao,-12.0667,-77.15,20.4,73,40,5.66,PE,1693275339
212,sao jose da coroa grande,-8.8978,-35.1478,24.79,90,39,4.15,BR,1693275340
213,codrington,-38.2667,141.9667,18.66,62,100,6.94,AU,1693275341
214,yilan,24.757,121.753,32.92,62,100,2.68,TW,1693275342
215,kucove,40.8003,19.9167,24.86,52,99,1.49,AL,1693275345
216,privolzhskiy,51.4,46.0333,10.17,53,0,7.4,RU,1693275346
217,myeik,12.4333,98.6,26.17,88,100,3.03,MM,1693275347
218,iskateley,67.6803,53.1512,7.73,86,100,1.0,RU,1693275348
219,kailua-kona,19.6406,-155.9956,29.98,94,40,6.69,US,1693275350
220,buka,40.8108,69.1986,19.06,36,11,0.92,UZ,1693275351
221,estevan,49.1334,-102.9842,22.34,56,0,3.6,CA,1693275352
222,thongwa,16.7619,96.5278,26.09,83,99,1.09,MM,1693275353
223,morococha,-11.5997,-76.1411,5.0,73,17,1.8,PE,1693275355
224,mizan teferi,6.9833,35.5833,18.02,73,99,1.19,ET,1693275357
225,luena,-11.7833,19.9167,14.48,48,23,2.76,AO,1693275358
226,metlili chaamba,32.2667,3.6333,24.52,14,0,1.54,DZ,1693275359
227,richards bay,-28.783,32.0377,14.8,84,15,3.05,ZA,1693275360
228,san martin de valdeiglesias,40.3623,-4.3439,19.8,67,12,3.25,ES,1693275361
229,lawang,-7.8353,112.6947,28.65,42,12,0.81,ID,1693275363
230,sarigerme,36.7155,28.7044,23.73,78,0,2.06,TR,1693275364
231,krasnoslobodsk,48.7072,44.5714,9.9,66,0,3.0,RU,1693275365
232,minas de marcona,-15.2119,-75.1103,14.04,79,3,4.26,PE,1693275366
233,cienaga,11.007,-74.2476,30.07,66,40,2.06,CO,1693275368
234,fraserburgh,57.6874,-2.0184,12.29,88,100,2.8,GB,1693275369
235,usinsk,65.9939,57.5281,6.55,90,62,2.31,RU,1693275370
236,san ciro de acosta,21.6333,-99.8167,22.86,68,2,1.43,MX,1693275371
237,ancud,-41.8697,-73.8203,7.34,79,82,3.82,CL,1693275373
238,warrenton,-28.114,24.8475,7.37,32,0,4.02,ZA,1693275374
239,beyneu,45.3167,55.2,18.02,88,78,5.17,KZ,1693275375
240,rio grande,-32.035,-52.0986,5.53,86,83,3.87,BR,1693275377
241,nova sintra,14.8667,-24.7167,24.31,81,78,5.66,CV,1693275379
242,amos,48.5669,-78.1162,13.46,68,90,2.46,CA,1693275270
243,mejit,10.2753,170.8646,28.42,76,55,5.61,MH,1693275381
244,oranjemund,-28.55,16.4333,24.65,31,0,7.72,NA,1693275383
245,wainwright,52.839,-110.8572,22.77,45,0,1.4,CA,1693275384
246,sambava,-14.2667,50.1667,20.74,82,53,5.59,MG,1693275385
247,pacocha,-17.5833,-71.3333,16.85,88,3,0.47,PE,1693275387
248,faridpur,23.6,89.8333,29.54,71,100,0.46,BD,1693275388
249,portland,45.5234,-122.6762,20.97,78,100,2.57,US,1693274705
250,pundong,-7.9522,110.3486,27.12,62,13,3.88,ID,1693275390
251,jalalaqsi,3.3766,45.5996,23.51,86,93,7.34,SO,1693275392
252,lusaka,-15.4067,28.2871,11.59,77,0,4.54,ZM,1693275108
253,sidney,-33.8679,151.2073,24.62,48,0,2.68,AU,1693275226
254,kidal,18.4411,1.4078,30.63,43,100,5.81,ML,1693275396
255,howard springs,-12.497,131.047,31.04,37,8,5.72,AU,1693275398
256,sampang,-7.1872,113.2394,27.12,64,3,3.16,ID,1693275399
257,benguela,-12.5763,13.4055,21.17,86,17,1.69,AO,1693275400
258,thompson,55.7435,-97.8558,11.09,100,100,1.54,CA,1693275401
259,kumagunnam,13.1551,10.6342,27.19,49,27,3.44,NG,1693275402
260,fale old settlement,-9.3852,-171.2468,28.65,76,79,7.24,TK,1693275404
261,ghat,24.9647,10.1728,30.76,30,17,1.48,LY,1693275405
262,rakitovo,41.9833,24.0833,17.35,62,0,2.09,BG,1693275406
263,laojunmiao,39.8333,97.7333,19.38,33,82,9.71,CN,1693275408
264,vung tau,10.346,107.0843,28.22,79,100,6.97,VN,1693275410
265,korla,41.7597,86.1469,28.18,20,100,12.16,CN,1693275411
266,severo-vostotchnyi bank,39.4112,49.2479,24.79,65,0,2.59,AZ,1693275412
267,rehoboth,-23.3167,17.0833,14.02,68,1,2.03,NA,1693275413
268,lihue,21.9789,-159.3672,29.77,66,40,5.66,US,1693275414
269,bilyts'ke,48.4064,37.1811,17.65,79,1,3.93,UA,1693275416
270,arraial do cabo,-22.9661,-42.0278,19.31,81,100,9.68,BR,1693275417
271,las tablas,7.7667,-80.2833,26.76,99,90,2.5,PA,1693275418
272,olinda,-8.0089,-34.8553,25.85,89,75,3.09,BR,1693275419
273,jayamkondacholapuram,11.2167,79.3667,27.7,66,100,4.18,IN,1693275421
274,taguatinga,-12.3857,-46.5711,26.15,54,34,1.76,BR,1693275423
275,tamanrasset,22.785,5.5228,27.95,30,40,2.06,DZ,1693275397
276,remire-montjoly,4.9167,-52.2667,26.02,89,0,1.03,GF,1693275425
277,st. john's,47.5649,-52.7093,16.1,92,0,6.69,CA,1693275405
278,siniscola,40.5719,9.6922,21.75,59,0,9.38,IT,1693275428
279,lishui,28.4604,119.9103,23.87,97,100,1.67,CN,1693275429
280,westport,41.1415,-73.3579,21.63,85,75,4.12,US,1693275430
281,al jawf,29.5,38.75,22.97,43,0,1.85,SA,1693275432
282,cozumel,20.5083,-86.9458,28.04,89,100,6.69,MX,1693275433
283,vorgashor,67.5833,63.95,6.43,87,67,1.64,RU,1693275434
284,ukhta,63.5671,53.6835,5.13,96,14,1.91,RU,1693275435
285,progreso,21.2833,-89.6667,29.06,83,6,3.53,MX,1693275437
286,misrikh,27.45,80.5167,27.01,76,57,2.6,IN,1693275438
287,sao felipe,-14.8167,-41.3833,22.5,82,74,2.82,BR,1693275439
288,mariehamn,60.0973,19.9348,14.34,94,0,2.06,AX,1693275440
289,angaur state,6.906,134.13,28.0,83,94,5.89,PW,1693275442
290,divnogorsk,55.9594,92.3619,22.27,76,93,2.61,RU,1693275443
291,galesong,-5.3166,119.3661,32.01,53,43,0.69,ID,1693275444
292,nogliki,51.8333,143.1667,20.27,58,0,3.07,RU,1693275447
293,ko samui,9.5357,99.9357,30.95,66,20,3.6,TH,1693275449
294,juan diaz covarrubias,18.1628,-95.2069,25.45,90,22,1.71,MX,1693275451
295,palo santo,-25.5633,-59.3378,15.3,55,1,2.79,AR,1693275452
296,alice springs,-23.7,133.8833,26.75,11,0,2.06,AU,1693275453
297,douz,33.4663,9.0203,25.18,64,0,7.72,TN,1693275455
298,keflavik,64.0049,-22.5624,10.95,93,40,4.63,IS,1693275456
299,as saffaniyah,27.9708,48.73,32.39,51,0,3.95,SA,1693275457
300,altay,47.8667,88.1167,18.78,60,100,0.64,CN,1693275458
301,plouzane,48.3833,-4.6167,14.03,91,100,1.54,FR,1693275459
302,kuytun,54.3419,101.5036,21.9,57,14,4.89,RU,1693275461
303,bubaque,11.2833,-15.8333,26.59,83,100,5.29,GW,1693275462
304,bambous,-20.2567,57.4061,20.08,85,68,2.79,MU,1693275463
305,isafjordur,66.0755,-23.124,9.28,87,100,1.74,IS,1693275464
306,kitui,-1.367,38.0106,14.95,91,42,1.53,KE,1693275466
307,rundu,-17.9333,19.7667,18.48,55,8,4.35,NA,1693275467
308,san luis de la loma,17.2706,-100.8939,27.59,85,43,0.32,MX,1693275468
309,benghazi,32.1167,20.0667,29.02,40,0,3.55,LY,1693275354
310,luancheng,37.8792,114.6517,25.09,70,0,1.08,CN,1693275470
311,nyurba,63.2842,118.3319,22.87,43,0,2.18,RU,1693275472
312,maridi,4.9158,29.4742,18.06,95,1,0.86,SS,1693275473
313,tyuratam,45.6507,63.3156,20.39,25,100,11.07,KZ,1693275475
314,quiberon,47.4841,-3.1196,14.55,79,100,5.6,FR,1693275476
315,al miqdadiyah,33.9786,44.9369,31.5,30,0,3.52,IQ,1693275477
316,labuan bajo,-8.4964,119.8877,28.88,53,7,1.63,ID,1693275478
317,kiunga,-6.1219,141.2906,27.03,73,99,1.76,PG,1693275479
318,mogok,22.9167,96.5,21.66,94,100,0.76,MM,1693275481
319,kimbe,-5.5502,150.1429,31.49,58,48,4.92,PG,1693275482
320,nantucket,41.2835,-70.0995,20.57,97,0,3.09,US,1693275483
321,kearney,40.6995,-99.0815,22.95,67,75,1.54,US,1693275300
322,camana,-16.6228,-72.7111,18.17,81,0,3.28,PE,1693275486
323,pangody,65.85,74.4859,12.66,62,45,4.39,RU,1693275488
324,dhidhdhoo,6.8833,73.1,25.67,89,100,7.47,MV,1693275489
325,saint-pierre,-21.3393,55.4781,20.82,73,75,3.09,RE,1693275490
326,dakhla,23.6848,-15.958,20.56,84,0,11.46,EH,1693275492
327,tura,25.5198,90.2201,26.9,79,100,0.48,IN,1693275493
328,teofilo otoni,-17.8575,-41.5053,19.03,96,100,1.1,BR,1693275494
329,carnarvon,-24.8667,113.6333,23.49,41,0,3.62,AU,1693275496
330,kharkhorin,47.1975,102.8238,18.34,59,0,0.84,MN,1693275498
331,tongouson,5.0214,120.1328,28.43,81,100,7.89,PH,1693275499
332,neiafu,-18.65,-173.9833,25.38,61,75,4.63,TO,1693275500
333,prince rupert,54.3161,-130.3201,18.05,85,20,3.09,CA,1693275387
334,redwood falls,44.5394,-95.1169,25.97,57,75,3.6,US,1693275503
335,dalbandin,28.8947,64.4101,28.77,17,0,0.51,PK,1693275504
336,archangelos,36.2149,28.1149,24.99,74,0,5.01,GR,1693275505
337,ukiah,39.1502,-123.2078,29.69,37,0,5.14,US,1693275506
338,faya-largeau,17.9257,19.1043,34.17,37,100,5.17,TD,1693275507
339,pandan,14.0453,124.1694,30.78,68,91,8.28,PH,1693275508
340,patti,31.2808,74.8572,27.03,65,0,2.43,IN,1693275510
341,manati,18.4275,-66.4921,29.82,84,33,2.27,PR,1693275512
342,leh,34.1667,77.5833,11.63,43,3,2.38,IN,1693275513
343,taungdwingyi,20.0167,95.55,26.53,86,100,3.07,MM,1693275514
344,ulsteinvik,62.3432,5.8487,14.86,85,100,1.79,NO,1693275517
345,kodyma,48.0988,29.1246,23.32,38,30,1.75,UA,1693275519
346,acarau,-2.8856,-40.12,25.0,84,0,5.29,BR,1693275520
347,bhimunipatnam,17.8833,83.4333,28.64,65,80,1.67,IN,1693275521
348,lillehammer,61.1146,10.4674,8.58,96,12,1.11,NO,1693275523
349,tramandai,-29.9847,-50.1336,12.21,78,5,5.27,BR,1693275524
350,ducheng,23.2373,111.5317,26.98,75,99,2.11,CN,1693275525
351,road town,18.4167,-64.6167,29.05,84,40,2.06,VG,1693275526
352,sogndal,61.2283,7.1003,9.21,100,90,0.0,NO,1693275528
353,adiake,5.2863,-3.304,23.49,94,100,2.53,CI,1693275530
354,elliot lake,46.3834,-82.6331,13.01,73,100,2.04,CA,1693275531
355,molchanovo,57.5817,83.7692,15.54,94,100,2.89,RU,1693275532
356,binzhou,37.3667,118.0167,25.52,56,0,4.78,CN,1693275534
357,samalut,28.3121,30.7101,26.79,48,0,3.36,EG,1693275536
358,makoua,0.0069,15.6333,21.2,97,100,2.58,CG,1693275537
359,vila do maio,15.1333,-23.2167,27.44,82,96,5.19,CV,1693275538
360,kirando,-7.4167,30.6,23.83,56,90,6.64,TZ,1693275539
361,el alto,-4.2714,-81.2147,20.81,84,3,7.57,PE,1693275540
362,yinchuan,38.4681,106.2731,24.45,33,0,2.22,CN,1693275542
363,tsiombe,-25.3,45.4833,17.24,66,3,5.51,MG,1693275543
364,kutulik,53.3508,102.7839,20.89,65,13,5.24,RU,1693275544
365,marsa alam,25.0757,34.8918,31.01,45,39,4.98,EG,1693275547
366,djibo,14.1022,-1.6306,28.25,64,53,2.96,BF,1693275548
367,gaya,24.7833,85.0,27.95,83,40,2.06,IN,1693275549
368,akrehamn,59.2667,5.1833,14.12,88,100,7.2,NO,1693275550
369,quellon,-43.1167,-73.6167,7.14,87,100,3.09,CL,1693275551
370,lorengau,-2.0226,147.2712,28.17,82,91,5.38,PG,1693275552
371,sandnessjoen,66.0217,12.6316,13.29,87,74,7.73,NO,1693275554
372,amga,60.8953,131.9608,24.16,54,11,0.22,RU,1693275555
373,kungur,57.4368,56.9593,7.43,93,22,5.11,RU,1693275556
374,san felipe,10.3399,-68.7425,24.42,83,1,1.76,VE,1693275557
375,mount pearl,47.5166,-52.7813,15.64,92,0,6.69,CA,1693275558
376,crane,31.3974,-102.3501,28.58,50,60,2.74,US,1693275559
377,manay,7.215,126.5397,30.92,68,91,6.16,PH,1693275562
378,ben gardane,33.1378,11.2197,25.85,63,2,5.04,TN,1693275563
379,porto murtinho,-21.6989,-57.8825,22.76,38,94,0.85,BR,1693275564
380,kavaratti,10.5669,72.642,27.99,77,100,5.59,IN,1693275566
381,saint-philippe,-21.3585,55.7679,20.77,83,73,4.27,RE,1693275567
382,gvardeysk,54.6477,21.0651,15.03,80,100,2.69,RU,1693275568
383,forquilhinha,-28.7475,-49.4722,8.02,93,0,0.94,BR,1693275569
384,new norfolk,-42.7826,147.0587,18.72,79,100,2.37,AU,1693275570
385,astrakhan,46.3497,48.0408,13.93,62,0,5.0,RU,1693275573
386,wagar,16.1525,36.2032,25.28,60,100,7.8,SD,1693275574
387,krasnyy kholm,58.0607,37.1203,8.33,73,100,3.41,RU,1693275575
388,zelenodolsk,55.8438,48.5178,5.98,93,24,4.62,RU,1693275401
389,arkhangel'sk,64.5401,40.5433,5.04,97,49,2.3,RU,1693275378
390,capri,40.5507,14.2426,21.83,55,11,11.57,IT,1693275579
391,nova vicosa,-17.8919,-39.3719,22.42,87,98,6.39,BR,1693275391
392,pishva,35.308,51.7267,26.14,29,0,2.51,IR,1693275581
393,barra do bugres,-15.0725,-57.1811,27.55,48,12,1.52,BR,1693275582
394,melfi,40.9965,15.6514,17.25,66,98,5.49,IT,1693275583
395,rongelap,11.1635,166.8941,28.54,78,82,5.78,MH,1693275586
396,fort-shevchenko,44.5086,50.263,23.88,73,55,6.43,KZ,1693275587
397,alakurtti,66.9672,30.3491,9.24,86,100,4.2,RU,1693275589
398,kristiansund,63.1115,7.732,11.03,93,75,1.03,NO,1693275590
399,banjarmasin,-3.3244,114.591,31.08,43,3,1.94,ID,1693275199
400,masterton,-40.9597,175.6575,13.42,49,4,1.64,NZ,1693275319
401,tanumah,27.1,44.1333,29.27,21,5,5.32,SA,1693275593
402,ishigaki,24.3448,124.1572,32.07,79,75,6.69,JP,1693275594
403,sylhet,24.5,91.6667,27.7,84,97,2.02,BD,1693275376
404,salekhard,66.53,66.6019,8.58,68,6,2.42,RU,1693275598
405,xiva,41.3783,60.3639,16.99,25,0,4.34,UZ,1693275502
406,itaituba,-4.2761,-55.9836,29.77,39,99,1.19,BR,1693275366
407,nemuro,43.3236,145.575,17.23,85,85,6.21,JP,1693275602
408,svetlyy,54.675,20.1347,16.65,89,100,1.69,RU,1693275604
409,tejen,37.3834,60.5054,21.52,19,0,6.73,TM,1693275605
410,anna regina,7.2644,-58.5077,28.46,79,99,3.92,GY,1693275606
411,urucara,-2.5364,-57.76,27.54,42,0,1.27,BR,1693275608
412,eyl,7.9803,49.8164,26.08,66,30,10.66,SO,1693275610
413,lesnoy,57.6198,63.0784,10.29,88,100,3.72,RU,1693275611
414,ingeniero jacobacci,-41.3427,-69.5448,2.48,70,0,3.82,AR,1693275612
415,nagqu,31.5,92.0,7.03,81,76,3.39,CN,1693275614
416,nacozari de garcia,30.3742,-109.6908,27.2,43,68,0.68,MX,1693275615
417,anloga,5.7947,0.8973,24.66,91,74,4.6,GH,1693275616
418,tshikapa,-6.4167,20.8,21.68,51,36,0.72,CD,1693275617
419,bamyan,34.75,67.25,6.43,63,0,1.21,AF,1693275618
420,kirensk,57.7853,108.1119,22.33,61,8,1.17,RU,1693275619
421,moose jaw,50.4001,-105.5344,23.14,40,0,1.54,CA,1693275621
422,la passe,45.5549,-0.8967,16.1,81,46,4.33,FR,1693275622
423,vorkuta,67.5,64.0,6.44,87,66,1.71,RU,1693275522
424,prince george,53.9166,-122.753,27.36,48,0,2.06,CA,1693275624
425,qamdo,31.1667,97.2333,8.75,68,99,0.47,CN,1693275625
426,ghorawal,24.7667,82.7833,24.48,79,95,3.94,IN,1693275626
427,mogocha,53.7333,119.7667,21.23,34,12,1.32,RU,1693275628
428,aral,40.5156,81.2636,24.83,26,100,5.57,CN,1693275629
429,cuajinicuilapa,16.4667,-98.4167,26.51,78,64,0.7,MX,1693275630
430,maloye ganyushkino,46.6,49.2667,16.42,45,0,6.45,KZ,1693275631
431,cidreira,-30.1811,-50.2056,12.94,74,17,5.73,BR,1693275633
432,gudur,14.1333,79.85,30.13,60,76,4.38,IN,1693275634
433,sibu,2.3,111.8167,29.17,74,20,1.03,MY,1693275635
434,la reforma,25.0833,-108.05,28.78,78,2,2.81,MX,1693275636
435,awjilah,29.1081,21.2869,30.4,23,0,2.27,LY,1693275637
436,enewetak,11.3474,162.3373,28.81,78,39,7.71,MH,1693275638
437,visakhapatnam,17.69,83.2093,29.23,63,52,0.8,IN,1693275640
438,lamu,-2.2717,40.902,24.12,83,36,6.06,KE,1693275641
439,consolacion,10.3667,123.95,26.89,78,100,7.72,PH,1693275642
440,matamata,-37.8106,175.7624,15.1,54,0,2.24,NZ,1693275643
441,ermoupolis,37.4423,24.9425,24.39,64,0,1.03,GR,1693275645
442,taltal,-25.4,-70.4833,18.44,52,2,2.25,CL,1693275646
443,bardai,11.65,7.2333,22.45,84,4,2.92,NG,1693275647
444,hunchun,42.8675,130.3581,17.11,97,100,7.55,CN,1693275648
445,coyhaique,-45.5752,-72.0662,5.97,56,75,2.06,CL,1693275649
446,ayios konstandinos,38.6333,21.4,22.43,65,23,1.24,GR,1693275650
447,cockburn town,21.4612,-71.1419,29.14,79,65,3.14,TC,1693275652
448,santa rosa,14.3122,121.1114,30.04,80,100,6.55,PH,1693275653
449,geraldton,-28.7667,114.6,19.23,72,0,4.12,AU,1693275655
450,namtsy,62.7161,129.6658,25.75,41,62,0.69,RU,1693275656
451,puerto maldonado,-12.6,-69.1833,27.43,47,99,0.16,PE,1693275657
452,crucecita,-28.95,-58.9833,9.41,51,0,3.24,AR,1693275658
453,natchez,31.5604,-91.4032,25.14,88,0,1.54,US,1693275660
454,grande prairie,55.1667,-118.8027,23.1,64,0,3.09,CA,1693275661
455,yemva,62.59,50.8594,7.81,84,100,1.45,RU,1693275662
456,narman,40.3465,41.8703,14.78,73,100,0.91,TR,1693275663
457,guerrero negro,27.9769,-114.0611,22.22,78,9,6.06,MX,1693275664
458,robore,-18.3333,-59.75,22.51,51,5,1.44,BO,1693275665
459,tanabe,33.7333,135.3667,30.56,70,20,5.66,JP,1693275667
460,bonthe,7.5264,-12.505,24.64,90,100,2.44,SL,1693275668
461,palapye,-22.546,27.1251,10.23,75,94,3.38,BW,1693275669
462,puerto lempira,15.2667,-83.7667,26.44,92,100,4.15,HN,1693275670
463,akureyri,65.6835,-18.0878,8.96,87,100,0.0,IS,1693275671
464,pontianak,-0.0333,109.3333,28.99,65,20,4.12,ID,1693275673
465,mableton,33.8157,-84.5619,22.51,94,0,0.0,US,1693275674
466,saint-louis,16.3333,-15.0,26.81,75,89,5.0,SN,1693275675
467,al wafrah,28.6392,47.9306,30.2,23,0,1.64,KW,1693275676
468,twon-brass,4.3151,6.2418,25.42,88,25,4.61,NG,1693275679
469,longboat key,27.4125,-82.659,30.03,62,75,2.57,US,1693275680
470,mando,10.7167,6.5667,21.89,92,7,1.07,NG,1693275682
471,thunder bay,48.4001,-89.3168,16.99,94,75,1.03,CA,1693275635
472,hauterive,46.0901,3.4459,13.42,95,62,0.66,FR,1693275685
473,muisne,0.6,-80.0333,25.06,83,91,2.6,EC,1693275686
474,alesund,62.4723,6.1549,14.86,87,100,3.6,NO,1693275540
475,riasi,33.0833,74.8333,23.37,79,92,2.3,IN,1693275688
476,thief river falls,48.1191,-96.1812,19.53,68,0,0.0,US,1693275552
477,sarpol-e zahab,34.4611,45.8626,27.69,32,0,1.78,IR,1693275691
478,katsuren-haebaru,26.3369,127.8719,33.01,74,2,4.66,JP,1693275692
479,tolanaro,-25.0319,46.9987,20.04,52,75,4.12,MG,1693275693
480,liperi,62.5333,29.3667,14.6,82,100,6.69,FI,1693275694
481,hovd,48.0056,91.6419,26.32,18,100,3.03,MN,1693275696
482,fuerte olimpo,-21.0415,-57.8738,22.16,38,7,0.96,PY,1693275697
483,kosh-agach,50.0,88.6667,18.8,34,100,0.56,RU,1693275698
484,hagere maryam,5.6333,38.2333,14.93,74,100,1.76,ET,1693275700
485,santa maria do suacui,-18.1903,-42.4142,18.64,96,100,0.96,BR,1693275703
486,kruisfontein,-34.0033,24.7314,15.84,24,0,4.1,ZA,1693275704
487,dickinson,29.4608,-95.0513,33.05,68,20,5.14,US,1693275706
488,touros,-5.1989,-35.4608,24.24,88,0,3.63,BR,1693275652
489,'ain deheb,34.8422,1.547,15.15,37,6,2.37,DZ,1693275708
490,revda,56.801,59.9303,7.4,95,100,4.64,RU,1693275583
491,arenapolis,-14.4503,-56.8461,27.56,51,58,2.03,BR,1693275710
492,bodo,67.28,14.405,12.65,97,0,1.54,NO,1693275712
493,magadan,59.5667,150.8,19.74,58,19,0.18,RU,1693275713
494,itamaraca,-7.7478,-34.8256,26.03,90,4,2.85,BR,1693275714
495,koh kong,11.6175,102.9806,28.73,74,99,3.38,KH,1693275715
496,yeed,4.55,43.0333,23.47,69,57,8.54,SO,1693275717
497,snyder,32.7179,-100.9176,29.19,32,0,2.57,US,1693275718
498,nar'yan-mar,67.6713,53.087,7.79,86,100,1.05,RU,1693275719
499,coquimbo,-29.9533,-71.3436,13.85,76,0,2.06,CL,1693275720
500,altamira,-3.2033,-52.2064,28.09,47,90,1.09,BR,1693275721
501,tual,-5.6667,132.75,24.71,85,100,9.42,ID,1693275723
502,salaga,8.5508,-0.5188,22.88,95,79,1.27,GH,1693275725
503,omaruru,-21.4333,15.9333,19.85,46,6,7.2,NA,1693275726
504,walvis bay,-22.9575,14.5053,17.53,67,47,3.6,NA,1693275727
505,watsa,3.0372,29.5355,17.26,98,93,1.01,CD,1693275729
506,chaiyaphum,15.75,102.0,26.46,76,100,3.52,TH,1693275730
507,borogontsy,62.6683,131.1683,24.06,48,7,1.3,RU,1693275731
508,al hazm,16.1641,44.7769,27.23,36,42,1.84,YE,1693275732
509,qurayyat,31.3318,37.3428,21.1,60,0,0.0,SA,1693275525
510,malabar,-33.9667,151.25,24.84,49,0,2.57,AU,1693275734
511,alto araguaia,-17.3147,-53.2153,23.92,55,43,1.45,BR,1693275736
512,vyatskiye polyany,56.226,51.0656,9.22,91,95,5.79,RU,1693275737
513,lompoc,34.6391,-120.4579,26.08,79,0,10.28,US,1693275738
514,kilindoni,-7.9139,39.6668,24.75,81,19,11.53,TZ,1693275739
515,sensuntepeque,13.8667,-88.6333,20.57,95,100,0.49,SV,1693275741
516,praia da vitoria,38.7333,-27.0667,23.75,94,75,4.43,PT,1693275742
517,doctor arroyo,23.6667,-100.1833,22.52,46,61,3.35,MX,1693275743
518,yarmouth,41.7057,-70.2286,20.01,93,0,1.34,US,1693275744
519,east london,-33.0153,27.9116,15.57,64,0,5.0,ZA,1693275745
520,berdigestyakh,62.0989,126.6992,25.54,46,10,1.12,RU,1693275747
521,san pedro pochutla,15.7333,-96.4667,26.51,86,100,0.85,MX,1693275748
522,auki,-8.7676,160.7034,27.8,77,100,4.85,SB,1693275749
523,chilca,-12.5211,-76.7372,18.33,86,64,3.34,PE,1693275751
524,pinotepa nacional,16.3167,-98.0167,25.66,79,98,0.41,MX,1693275752
525,mont-dore,-22.2833,166.5833,24.99,99,82,5.53,NC,1693275753
526,terrace,54.5163,-128.6035,25.95,44,75,8.23,CA,1693275754
527,karratha,-20.7377,116.8463,28.9,20,12,3.6,AU,1693275755
528,madang,-5.2246,145.7966,31.09,61,26,3.26,PG,1693275757
529,kloulklubed,7.0419,134.2556,31.28,82,77,5.78,PW,1693275758
530,kem',64.9555,34.5793,9.07,82,93,6.11,RU,1693275759
531,moyale,3.5167,39.0584,18.01,79,78,5.97,KE,1693275760
532,novodvinsk,64.4165,40.8122,4.6,97,27,2.17,RU,1693275761
533,jerome,42.7241,-114.5186,30.24,39,4,4.51,US,1693275763
534,yanjiang,30.1211,104.6481,23.16,87,100,0.98,CN,1693275747
535,horta,38.5333,-28.6333,23.34,94,100,4.02,PT,1693275765
536,west richland,46.3043,-119.3614,37.95,24,0,4.12,US,1693275767
537,weno,7.4515,151.8468,28.97,89,100,2.57,FM,1693275769
538,hotan,37.0997,79.9269,20.83,43,63,4.71,CN,1693275770
539,glace bay,46.1969,-59.957,13.98,91,40,3.09,CA,1693275773
540,puerto ayacucho,5.6639,-67.6236,24.4,94,98,2.29,VE,1693275774
541,ciudad acuna,29.3232,-100.9522,27.32,73,40,5.66,MX,1693275775
542,oltinko'l,40.8011,72.1634,17.9,43,0,1.86,UZ,1693275776
543,bodaybo,57.8506,114.1933,21.46,64,0,0.04,RU,1693275777
544,petropavlivka,48.4564,36.4367,19.25,76,5,3.77,UA,1693275778
545,porto novo,6.4965,2.6036,24.9,93,88,2.03,BJ,1693275780
546,tafuna,-14.3358,-170.72,27.97,83,100,7.2,AS,1693275781
547,podujeva,42.9106,21.1931,18.53,65,91,1.49,XK,1693275782
548,ketchikan,55.3422,-131.6461,19.26,82,0,6.69,US,1693275783
549,gaalkacyo,6.7697,47.4308,24.31,66,76,8.71,SO,1693275784
550,sitangkai,4.6628,119.3928,28.58,80,100,8.18,PH,1693275786
551,maintirano,-18.0667,44.0167,23.45,83,78,2.86,MG,1693275787
552,nouadhibou,20.931,-17.0347,23.81,85,100,1.29,MR,1693275788
553,balykshi,47.0667,51.8667,9.0,81,0,4.0,KZ,1693275789
554,minas novas,-17.2186,-42.5903,19.18,96,90,1.01,BR,1693275791
555,naze,28.3667,129.4833,29.51,79,73,4.5,JP,1693275794
556,island harbour,50.724,-1.2758,15.52,86,97,0.45,GB,1693275795
557,piti village,13.4626,144.6933,31.49,74,20,3.6,GU,1693275796
558,les cayes,18.2,-73.75,27.98,87,62,1.94,HT,1693275797
559,kanniyakumari,8.0833,77.5667,26.55,83,99,5.41,IN,1693275799
560,yasugicho,35.4333,133.25,34.01,49,20,5.66,JP,1693275800
561,alton north (historical),26.2953,-98.3045,35.1,48,0,5.66,US,1693275801
562,atar,20.5169,-13.0499,31.94,54,77,6.63,MR,1693275802
563,tsirang,27.0219,90.1229,19.97,90,87,0.75,BT,1693275803
564,lazaro cardenas,17.9583,-102.2,28.03,81,4,1.75,MX,1693275805
565,essaouira,31.5125,-9.77,23.72,49,0,4.63,MA,1693275806
566,manicore,-5.8092,-61.3003,29.53,42,86,0.53,BR,1693275807
